[
      {
         "likes": 104,
         "name": "Hand Job",
         "location": {
            "street": "565 Castro St",
            "city": "San Francisco",
            "state": "CA",
            "country": "United States",
            "zip": "94114",
            "latitude": 37.759930389784,
            "longitude": -122.43486196618
         },
         "id": "testData110321045724960"
      },
      {
         "likes": 63,
         "name": "Nirvana",
         "location": {
            "street": "544 Castro St",
            "city": "San Francisco",
            "state": "CA",
            "country": "United States",
            "zip": "94114-2512",
            "latitude": 37.760202716039,
            "longitude": -122.43508264941
         },
         "id": "testData107526052618126"
      },
      {
         "likes": 27,
         "name": "All Season Restaurant",
         "location": {
            "street": "524 Castro St",
            "city": "San Francisco",
            "state": "CA",
            "country": "United States",
            "zip": "94114-2512",
            "latitude": 37.760556347153,
            "longitude": -122.43504327725
         },
         "id": "testData109110839123128"
      },
      {
         "likes": 27,
         "name": "Amiebrown's Pad",
         "location": {
            "city": "San Francisco",
            "state": "CA",
            "country": "United States",
            "latitude": 37.760251186031,
            "longitude": -122.43494499712
         },
         "id": "testData102933859768461"
      },
      {
         "likes": 20,
         "name": "The Dancing Pig",
         "location": {
            "street": "544 Castro Street",
            "city": "San Francisco",
            "state": "CA",
            "country": "United States",
            "zip": "94114",
            "latitude": 37.760259656969,
            "longitude": -122.43494250536
         },
         "id": "testData181401098631015"
      },
      {
         "likes": 798,
         "name": "Best in Show",
         "location": {
            "street": "545 Castro Street",
            "city": "San Francisco",
            "state": "CA",
            "country": "United States",
            "zip": "94114",
            "latitude": 37.760319214046,
            "longitude": -122.43482596721
         },
         "id": "testData227421215067"
      },
      {
         "likes": 77,
         "name": "Frapez",
         "location": {
            "street": "4092 18th St \u0040 Castro",
            "city": "San Francisco",
            "state": "CA",
            "country": "United States",
            "zip": "94114",
            "latitude": 37.760670527731,
            "longitude": -122.43452952526
         },
         "id": "testData59977938162"
      },
      {
         "likes": 31,
         "name": "Cocomo's",
         "location": {
            "city": "San Francisco",
            "state": "CA",
            "country": "United States",
            "latitude": 37.760306446766,
            "longitude": -122.43492016019
         },
         "id": "testData181950188482714"
      },
      {
         "likes": 234,
         "name": "Whatever Store",
         "location": {
            "street": "548 Castro Street ",
            "city": "San Francisco",
            "state": "CA",
            "country": "United States",
            "zip": "94114",
            "latitude": 37.760365409447,
            "longitude": -122.43497849804
         },
         "id": "testData278440702329"
      },
      {
         "likes": 161,
         "name": "Bryan Roberts Salon & Color Bar",
         "location": {
            "street": "561 Castro Street",
            "city": "San Francisco",
            "state": "CA",
            "country": "United States",
            "zip": "94114",
            "latitude": 37.759960729748,
            "longitude": -122.43478361377
         },
         "id": "testData113901868687810"
      },
      {
         "likes": 10,
         "name": "Harvey Milk's Camera Shop (575 Castro)",
         "location": {
            "city": "San Francisco",
            "state": "CA",
            "country": "United States",
            "latitude": 37.759911271784,
            "longitude": -122.43486440662
         },
         "id": "testData107658455964089"
      },
      {
         "likes": 1,
         "name": "Chinese Dim Sum & Food",
         "location": {
            "city": "San Francisco",
            "state": "CA",
            "country": "United States",
            "latitude": 37.760445784292,
            "longitude": -122.4348990529
         },
         "id": "testData153832057985155"
      },
      {
         "likes": 3,
         "name": "Herbivore",
         "location": {
            "city": "San Francisco",
            "state": "CA",
            "country": "United States",
            "latitude": 37.760543,
            "longitude": -122.434311
         },
         "id": "testData172653326084319"
      },
      {
         "likes": 300,
         "name": "De La Sole Footwear",
         "location": {
            "street": "549 Castro St.",
            "city": "San Francisco",
            "state": "CA",
            "country": "United States",
            "zip": "94114",
            "latitude": 37.76015634012,
            "longitude": -122.43491459358
         },
         "id": "testData129995825761"
      },
      {
         "likes": 72,
         "name": "Mudpuppy's Castro, S.F",
         "location": {
            "street": "536 Castro Street",
            "city": "San Francisco",
            "state": "CA",
            "country": "United States",
            "zip": "94114",
            "latitude": 37.76015,
            "longitude": -122.43492
         },
         "id": "testData137295256380630"
      },
      {
         "name": "the bar",
         "location": {
            "city": "San Francisco",
            "state": "CA",
            "country": "United States",
            "latitude": 37.760175,
            "longitude": -122.434719
         },
         "id": "testData146926538691253"
      },
      {
         "likes": 209,
         "name": "Rizzo Chiropractic Corp",
         "location": {
            "street": "540 Castro Street",
            "city": "San Francisco",
            "state": "CA",
            "country": "United States",
            "zip": "94114",
            "latitude": 37.760289477778,
            "longitude": -122.43502003667
         },
         "id": "testData143268962383519"
      }
]

