{
   "data": [
      {
         "fakeId": "111111111111111111111111", 
         "likes": 104,
         "checkins":0,
         "talking_about_count": 104,
         "category": "restaurant",
         "name": "Hand Job",
         "description": "A nail salon",
         "location": {
            "street": "565 Castro St",
            "city": "San Francisco",
            "state": "CA",
            "country": "United States",
            "zip": "94114",
            "latitude": 37.759930389784,
            "longitude": -122.43486196618
         },
         "id": "110321045724960"
      },
      {
         "fakeId": "222222222222222222222222", 
         "likes": 63,
         "checkins":0,
         "talking_about_count": 63,
         "category": "restaurant",
         "name": "Nirvana",
         "location": {
            "street": "544 Castro St",
            "city": "San Francisco",
            "state": "CA",
            "country": "United States",
            "zip": "94114-2512",
            "latitude": 37.760202716039,
            "longitude": -122.43508264941
         },
         "id": "107526052618126"
      },
      {
         "fakeId": "333333333333333333333333", 
         "likes": 27,
         "checkins":0,
         "talking_about_count": 27,
         "category": "restaurant",
         "name": "All Season Restaurant",
         "location": {
            "street": "524 Castro St",
            "city": "San Francisco",
            "state": "CA",
            "country": "United States",
            "zip": "94114-2512",
            "latitude": 37.760556347153,
            "longitude": -122.43504327725
         },
         "id": "109110839123128"
      }
   ],
   "paging": {
   }
}

